  - name: Home
    latitude: !secret home_lat
    longitude: !secret home_long
    radius: 50

  - name: ToAndel
    latitude: 50.05028576621793
    longitude: 14.407266504965492
    radius: 100

  - name: Andel
    latitude: 50.07181637695498
    longitude: 14.40109297278665
    radius: 300
    
  - name: Lazarska
    latitude: 50.0792552
    longitude: 14.4206597
    radius: 100
    
  - name: ToCenter
    latitude: 50.03895628687976
    longitude: 14.403341809848598
    radius: 150
       
  - name: Work
    latitude: !secret work_lat
    longitude: !secret work_long
    radius: 100
    
  - name: SmichovskeNad
    latitude: 50.06081691414926
    longitude: 14.408698081970215
    radius: 100
    
  - name: ToWineFood
    latitude: 50.05165429631845
    longitude: 14.410333276190158
    radius: 100
    
  - name: WineFood
    latitude: 50.06312766008826
    longitude: 14.410505890846252
    radius: 100
    
  - name: ToHornbachP5
    latitude: 50.03731625484117
    longitude: 14.404350320438198
    radius: 100

  - name: HornbachP5
    latitude: 50.01711564352049
    longitude: 14.392004013061523
    radius: 150

  - name: FromHornbachP5
    latitude: 50.020497646816274
    longitude: 14.391348971419461
    radius: 100
    
  - name: BioStore
    latitude: 50.069935276368234
    longitude: 14.405101239681244
    radius: 100

  - name: Yoga
    latitude: 50.053344109028735
    longitude: 14.439699053764343
    radius: 100
    
  - name: Billa
    latitude: 50.03442312686808
    longitude: 14.378568828105927
    radius: 80
    
  - name: Posta
    latitude: 50.03448859534987
    longitude: 14.37636137008667
    radius: 50
    
  - name: IkeaZlicin
    latitude: 50.05129159516705
    longitude: 14.29226479883198
    radius: 400
  
  - name: ToP6
    latitude: 50.02640773207083
    longitude: 14.361298084259033
    radius: 600
    
  - name: FromP6HomeHighway
    latitude: 50.040781931095275
    longitude: 14.270255889515965
    radius: 600
  
  - name: FromP6HomeBackWay
    latitude: 50.04770073594183
    longitude: 14.307665650633908
    radius: 250

  - name: ToHornbachP6
    latitude: 50.06683074554662
    longitude: 14.309810544749325
    radius: 250

  - name: FromHornbachP6
    latitude: 50.07674466705169
    longitude: 14.300489152926161
    radius: 250

  - name: HornbachP6
    latitude: 50.07504465799953
    longitude: 14.307889938354492
    radius: 250

  - name: Airport
    latitude: 50.107368497290395
    longitude: 14.267528057098389
    radius: 350
    
  - name: HomeFromAirport
    latitude: 50.09321917589538
    longitude: 14.296229701730681
    radius: 600

  - name: LittleGym
    latitude: 50.07509061087109
    longitude: 14.402225241065025
    radius: 90

  - name: ParklaneValdstejnska
    latitude: 50.09169285033227
    longitude: 14.408373534679413
    radius: 50

  - name: NearFerryFromWork
    latitude: 50.054572177476324
    longitude: 14.41780686378479
    radius: 50
  
  - name: NearFerryToWork
    latitude: 50.04243660973981
    longitude: 14.406651554122906
    radius: 50

  - name: CMCp6
    latitude: 50.095582481132
    longitude: 14.349418242327829
    radius: 200 

  - name: CMCp4
    latitude: 50.02836000160167
    longitude: 14.493390732332614
    radius: 200

  - name: CMCp5
    latitude: 50.05602355945356
    longitude: 14.372034719771705
    radius: 200

  - name: EUCp4
    latitude: 50.05726309227848
    longitude: 14.432614653338305
    radius: 200

  - name: EUCp1
    latitude: 50.089155331978745
    longitude: 14.431200052761255
    radius: 150

  - name: Zlichov
    latitude: 50.04618517418162
    longitude: 14.407724440097809
    radius: 150
    
  - name: Malostranska
    latitude: 50.09067113114381
    longitude: 14.410035722090129